{"business_id":"f9NumwFMBDn751xgFiRbNA","name":"The Range At Lake Norman","address":"10913 Bailey Rd","city":"Cornelius","state":"NC","postal_code":"28031","latitude":35.4627242,"longitude":-80.8526119,"stars":3.5,"review_count":36,"is_open":1,"attributes":{"BusinessAcceptsCreditCards":"True","BikeParking":"True","GoodForKids":"False","BusinessParking":"{'garage': False, 'street': False, 'validated': False, 'lot': True, 'valet': False}","ByAppointmentOnly":"False","RestaurantsPriceRange2":"3"},"categories":"Active Life, Gun\/Rifle Ranges, Guns & Ammo, Shopping","hours":{"Monday":"10:0-18:0","Tuesday":"11:0-20:0","Wednesday":"10:0-18:0","Thursday":"11:0-20:0","Friday":"11:0-20:0","Saturday":"11:0-20:0","Sunday":"13:0-18:0"}}
{"business_id":"Yzvjg0SayhoZgCljUJRF9Q","name":"Carlos Santo, NMD","address":"8880 E Via Linda, Ste 107","city":"Scottsdale","state":"AZ","postal_code":"85258","latitude":33.5694041,"longitude":-111.8902637,"stars":5.0,"review_count":4,"is_open":1,"attributes":{"GoodForKids":"True","ByAppointmentOnly":"True"},"categories":"Health & Medical, Fitness & Instruction, Yoga, Active Life, Pilates","hours":null}
{"business_id":"XNoUzKckATkOD1hP6vghZg","name":"Felinus","address":"3554 Rue Notre-Dame O","city":"Montreal","state":"QC","postal_code":"H4C 1P4","latitude":45.479984,"longitude":-73.58007,"stars":5.0,"review_count":5,"is_open":1,"attributes":null,"categories":"Pets, Pet Services, Pet Groomers","hours":null}
{"business_id":"6OAZjbxqM5ol29BuHsil3w","name":"Nevada House of Hose","address":"1015 Sharp Cir","city":"North Las Vegas","state":"NV","postal_code":"89030","latitude":36.2197281,"longitude":-115.1277255,"stars":2.5,"review_count":3,"is_open":0,"attributes":{"BusinessAcceptsCreditCards":"True","ByAppointmentOnly":"False","DogsAllowed":"True","BikeParking":"True","BusinessParking":"{'garage': False, 'street': False, 'validated': False, 'lot': True, 'valet': False}","RestaurantsPriceRange2":"4"},"categories":"Hardware Stores, Home Services, Building Supplies, Home & Garden, Shopping","hours":{"Monday":"7:0-16:0","Tuesday":"7:0-16:0","Wednesday":"7:0-16:0","Thursday":"7:0-16:0","Friday":"7:0-16:0"}}
{"business_id":"51M2Kk903DFYI6gnB5I6SQ","name":"USE MY GUY SERVICES LLC","address":"4827 E Downing Cir","city":"Mesa","state":"AZ","postal_code":"85205","latitude":33.4280652,"longitude":-111.7266485,"stars":4.5,"review_count":26,"is_open":1,"attributes":{"BusinessAcceptsCreditCards":"True","ByAppointmentOnly":"True"},"categories":"Home Services, Plumbing, Electricians, Handyman, Contractors","hours":{"Monday":"0:0-0:0","Tuesday":"9:0-16:0","Wednesday":"9:0-16:0","Thursday":"9:0-16:0","Friday":"9:0-16:0"}}